[
  {
    "id": "santiago_cathedral",
    "name": "Catedral de Santiago de Compostela",
    "lat": 42.880556,
    "lon": -8.544167,
    "imageResName": "santiago_cathedral",
    "description": "Собор в Сантьяго-де-Компостела — окончательная цель маршрутов."
  },
  {
    "id": "roncesvalles",
    "name": "Real Colegiata de Santa María de Roncesvalles",
    "lat": 43.00991941172856,
    "lon":  -1.3194680776181864,
    "imageResName": "roncesvalles",
    "description": "Самое впечатляющее в этом месте – его история и преданность Богородице. Это место является отправной точкой Пути Сантьяго"
  },
  {
    "id": "military_miniatures",
    "name": "Museum of Military Miniatures",
    "lat": 42.57178556587112,
    "lon": -0.5514504437004301,
    "imageResName": "military_miniatures",
    "description": "Внутри пентагональной цитадели XVI века тысячи расписанных вручную солдат проходят маршем через обширные диорамы от средневековых пикинеров до танков XX века."
  },
  {
    "id": "logrongo",
    "name": "Logrongo",
    "lat": 42.46285695731893,
    "lon": -2.4450332498782528,
    "imageResName": "logrongo",
    "description": "Логроньо — город в Испании, административный центр автономного сообщества Риоха. Муниципалитет находится в составе района Логроньо. Столица винодельческой Ла-Риохи, крупная остановка на пути паломников по пути Святого Иакова в Сантьяго-де-Компостела. Город на реке Эбро на границе Кастилии, Наварры и Арагоны."
  },
  {
    "id": "calzada",
    "name": "Catedral de Santo Domingo de la Calzada",
    "lat": 42.44091467258305,
    "lon": -2.953617264231127,
    "imageResName": "calzada",
    "description": "Собор Санто-Доминго-де-ла-Кальсада — римско-католический собор в деревне Санто-Доминго-де-ла-Кальсада в Ла-Риохе, Испания. Он посвящен Спасителю и святой Марии."
  },
  {
    "id": "plaza_del_castillo",
    "name": "Plaza del Castillo",
    "lat": 42.81685653514468,
    "lon": -1.6429416283873275,
    "imageResName": "plaza_del_castillo",
    "description": "Площадь замка — это главная площадь города Памплона, Испания, расположенная в его сердце и имеющая богатую историю с середины XIV века."
  },
  {
    "id": "burgos_cathedral",
    "name": "Catedral de Santa María de Burgos",
    "lat": 42.340820248067665,
    "lon": -3.7044534321783145,
    "imageResName": "burgos_cathedral",
    "description": "Кафедра́льный собо́р в го́роде Бу́ргос — собор Богоматери в городе Бургосе, провинция Бургос, Испания. Кафедральный собор архиепархии Бургоса. Был заложен как главный храм королевства Кастилия. Строительство собора началось 20 июля 1221 года указом короля Кастилии Фердинанда III на месте бывшего романского собора."
  },
  {
    "id": "santa_maria_cathedral",
    "name": "Church of Santa María del Camino",
    "lat": 42.33743744223464,
    "lon": -4.601546418459581,
    "imageResName": "santa_maria_cathedral",
    "description": "Церковь Санта-Мария-дель-Мар (Santa Maria del Mar) — это готическая церковь в районе Рибера города Барселона, Испания, построенная в XIV веке (1329–1383 гг.) в период морского и торгового расцвета Каталонии"
  },
  {
    "id": "plaza_mayor",
    "name": "Pl. Mayor",
    "lat": 42.59704859563665,
    "lon": -5.5667247163891505,
    "imageResName": "plaza_mayor",
    "description": "Plaza Mayor (Главная площадь) - это сердце исторического центра города. Построена в XVII веке в стиле барокко. Вокруг – аркады с кафе и барами, где любят собираться местные.В центре раньше ставили рынки, проводили праздники, корриды и даже публичные собрания."
  },
  {
    "id": "astorga",
    "name": "Palacio de Gaudí Astorga",
    "lat": 42.457795533295396,
    "lon": -6.0559449228514515,
    "imageResName": "astorga",
    "description": "Епископский дворец с музеем религиозного искусства по проекту Антонио Гауди."
  },
  {
    "id": "ponferadda",
    "name": "Castillo de Ponferrada",
    "lat": 42.54333981634266,
    "lon": -6.593793802060659,
    "imageResName": "ponferadda",
    "description": "Замок в Понферраде — это старинная крепость тамплиеров, расположенная в городе Понферрада, Испания, на месте древнего городища и римской цитадели. Замок получил название от железных укреплений, добавленных к мосту через реку Силь, что способствовало переправе паломников в Сантьяго-де-Компостела."
  },

  {
    "id": "clerigos",
    "name": "Clérigos Church",
    "lat": 41.145770462980316,
    "lon": -8.613980250743584,
    "imageResName": "clerigos",
    "description": "Храм в стиле барокко с мраморным алтарем и 75-метровой колокольней, которая считается символом Порту."
  },
  {
    "id": "clock_tower",
    "name": "Torre do Relógio e Porta Medieval",
    "lat": 41.876051534547656,
    "lon": -8.838854699095709,
    "imageResName": "clock_tower",
    "description": "Часовая башня Каминья — одна из главных исторических достопримечательностей города Каминья, расположенного в округе Виана-ду-Каштелу, Португалия. Изначально известная как Порта-де-Виана, поскольку служила входом в Виана-ду-Каштелу, башня — единственная сохранившаяся из трёх башен, входивших в средневековые городские стены."
  },
  {
    "id": "сoncatedral",
    "name": "Concatedral - Basílica de Santa María de Vigo",
    "lat": 42.239357891928265,
    "lon": -8.726138187984946,
    "imageResName": "сoncatedral",
    "description": "Собор Санта-Мария, также известный как Собор Виго и местное название Ла Колегиата, представляет собой католический храм в стиле испанского барокко и неоклассицизма, расположенный в Виго. Это один из соборов собора Туи, оба из которых являются резиденцией епархии Туи-Виго."
  },
  {
    "id": "basilica",
    "name": "Iglesia de Santa María la Mayor",
    "lat": 42.43389473124844,
    "lon": -8.647505197098035,
    "imageResName": "basilica",
    "description": "Базилика Санта-Мария-Маджоре в Риме. Эта папская базилика является одной из четырёх самых важных церквей Рима и одной из семи паломнических базилик, посвященной Деве Марии Снежной."
  },

  {
    "id": "sevilla",
    "name": "Catedral de Sevilla",
    "lat": 37.38644031970598,
    "lon": -5.993085289153933,
    "imageResName": "sevilla",
    "description": "Большой готический собор: могила Х. Колумба и мавританская колокольня, с которой открывается вид на город."
  },
  {
    "id": "merida",
    "name": "Teatro Romano de Mérida",
    "lat": 38.91554905661075,
    "lon": -6.338391699811989,
    "imageResName": "merida",
    "description": "Холм с руинами римской арены и комнат ожидания, использовавшихся в гладиаторских и звериных боях."
  },
  {
    "id": "caceres",
    "name": "Old Town of Cáceres",
    "lat": 39.47474735277909,
    "lon": -6.370285509111247,
    "imageResName": "caceres",
    "description": "Старый город в Касересе, Испания, — это объект Всемирного наследия ЮНЕСКО, который представляет собой хорошо сохранившийся пример средневековой архитектуры с влиянием римского, исламского, готического и ренессансного стилей. Его история, отражающая столкновения мавров и христиан, видна в многочисленных башнях, церквях, дворцах и площадей, таких как площадь Пласа-де-лас-Велетас, и по праву считается одним из самых впечатляющих исторических центров Испании."
  },
  {
    "id": "salamanca",
    "name": "Catedral Nueva de la Asunción de la Virgen",
    "lat": 40.96102082465683,
    "lon": -5.665595583099732,
    "imageResName": "salamanca",
    "description": "Большой собор в стиле готики и барокко с рельефами и фигурой космонавта, добавленной в 1992 году."
  },
  {
    "id": "ourense",
    "name": "Catedral de San Martiño de Ourense",
    "lat": 42.33678146953351,
    "lon": -7.863025861128883,
    "imageResName": "ourense",
    "description": "Собор Оренсе — это великолепный кафедральный собор и одна из главных достопримечательностей одноименного города в Галисии. Хотя он не находится на главном Французском пути (Camino Francés), он является ключевым пунктом на Португальском пути из Лимьи (Camino Portugués de la Vía de la Plata) и Зимнем пути (Camino de Invierno)."
  },

  {
    "id": "le_puy",
    "name": "Cathédrale Notre-Dame-du-Puy",
    "lat": 45.04585179840159,
    "lon": 3.8848328807348196,
    "imageResName": "le_puy",
    "description": "Собор Нотр-Дам-дю-Пюи (Cathédrale Notre-Dame-du-Puy) — это романский собор в Ле-Пюи-ан-Веле, Франция, построенный на вершине горы, известный как пункт назначения на Пути Святого Иакова и объект Всемирного наследия ЮНЕСКО. В отличие от знаменитого Парижского собора, этот собор не был разрушен пожаром, а сохранил свою первоначальную архитектуру и атмосферу."
  },
  {
    "id": "figeac",
    "name": "Église Abbatiale Saint Sauveur à Figeac",
    "lat": 44.60808596362798,
    "lon": 2.0344610557248686,
    "imageResName": "figeac",
    "description": "В правом крыле церкви аббатства Сен-Совёр находится небольшая часовня Богоматери Милосердия.Девять секций, разделённых четырьмя колоннами. Обратите внимание на резные и расписные деревянные украшения. Трёхпанельный алтарь (тема Страстей Христовых)"
  },
  {
    "id": "valentre",
    "name": "Pont Valentré",
    "lat": 44.445146992386796,
    "lon": 1.4317498955477905,
    "imageResName": "valentre",
    "description": "Мост Валантре́ — каменный арочный мост XIV века через реку Ло в Каоре. Укреплённый тремя башнями с навесными бойницами, представляет собой мост-крепость, служивший в числе прочего для защиты города от неприятельских вторжений. Широко известна связанная с мостом легенда, согласно которой его помогал строить дьявол."
  },
  {
    "id": "moissac",
    "name": "Abbaye Saint-Pierre de Moissac",
    "lat": 44.105438559297724,
    "lon": 1.084593356148965,
    "imageResName": "moissac",
    "description": "Аббатство Сен-Пьер — бывший католический монастырь, расположенный в коммуне Муассак департамента Тарн и Гаронна региона Юг — Пиренеи Франции. Аббатство включено в первоначальную редакцию списка исторических памятников Франции от 1840 года."
  }
]
